{
    "version": "1.1",
    "timestamp": "1499505424",
    "station": [
        {
            "id": "BE.NMBS.007015400",
            "longitude": "-0.1260606",
            "latitude": "51.5310399",
            "@id": "http://irail.be/stations/NMBS/007015400",
            "standardname": "London Saint Pancras International",
            "name": "London Saint Pancras International"
        },
        {
            "id": "BE.NMBS.007015440",
            "longitude": "0.32107",
            "latitude": "51.44304",
            "@id": "http://irail.be/stations/NMBS/007015440",
            "standardname": "Ebbsfleet International",
            "name": "Ebbsfleet International"
        },
        {
            "id": "BE.NMBS.008008094",
            "longitude": "6.794319",
            "latitude": "51.219962",
            "@id": "http://irail.be/stations/NMBS/008008094",
            "standardname": "Düsseldorf Hbf",
            "name": "Düsseldorf Hbf"
        },
        {
            "id": "BE.NMBS.008010053",
            "longitude": "7.459293",
            "latitude": "51.517898",
            "@id": "http://irail.be/stations/NMBS/008010053",
            "standardname": "Dortmund Hbf",
            "name": "Dortmund Hbf"
        },
        {
            "id": "BE.NMBS.008010184",
            "longitude": "7.014427185058594",
            "latitude": "51.45142619727769",
            "@id": "http://irail.be/stations/NMBS/008010184",
            "standardname": "Essen Hbf",
            "name": "Essen Hbf"
        },
        {
            "id": "BE.NMBS.008010316",
            "longitude": "6.7759037",
            "latitude": "51.42978",
            "@id": "http://irail.be/stations/NMBS/008010316",
            "standardname": "Duisburg Hbf",
            "name": "Duisburg Hbf"
        },
        {
            "id": "BE.NMBS.008011068",
            "longitude": "8.6653708",
            "latitude": "50.1071318",
            "@id": "http://irail.be/stations/NMBS/008011068",
            "standardname": "Frankfurt am Main Hbf",
            "name": "Frankfurt am Main Hbf"
        },
        {
            "id": "BE.NMBS.008011090",
            "longitude": "8.569853",
            "latitude": "50.051696",
            "@id": "http://irail.be/stations/NMBS/008011090",
            "name": "Frankfurt am Main Airport",
            "standardname": "Frankfurt am Main Flughafen"
        },
        {
            "id": "BE.NMBS.008015345",
            "longitude": "6.105275",
            "latitude": "50.770832",
            "@id": "http://irail.be/stations/NMBS/008015345",
            "standardname": "Aachen Hbf",
            "name": "Aachen Hbf"
        },
        {
            "id": "BE.NMBS.008015458",
            "longitude": "6.958823",
            "latitude": "50.942721",
            "@id": "http://irail.be/stations/NMBS/008015458",
            "standardname": "Köln Hbf",
            "name": "Köln Hbf"
        },
        {
            "id": "BE.NMBS.008015588",
            "longitude": "7.203029",
            "latitude": "50.793916",
            "@id": "http://irail.be/stations/NMBS/008015588",
            "standardname": "Siegburg",
            "name": "Siegburg"
        },
        {
            "id": "BE.NMBS.008032572",
            "longitude": "8.096112",
            "latitude": "50.3825",
            "@id": "http://irail.be/stations/NMBS/008032572",
            "standardname": "Limburg Süd",
            "name": "Limburg Süd"
        },
        {
            "id": "BE.NMBS.008039904",
            "longitude": "6.786837",
            "latitude": "51.292008",
            "@id": "http://irail.be/stations/NMBS/008039904",
            "standardname": "Düsseldorf Flughafen Hbf",
            "name": "Düsseldorf Flughafen Hbf"
        },
        {
            "id": "BE.NMBS.008200100",
            "longitude": "6.133331",
            "latitude": "49.599996",
            "@id": "http://irail.be/stations/NMBS/008200100",
            "standardname": "Lëtzebuerg",
            "name": "Lëtzebuerg"
        },
        {
            "id": "BE.NMBS.008200101",
            "longitude": "6.13668",
            "latitude": "49.633838",
            "@id": "http://irail.be/stations/NMBS/008200101",
            "standardname": "Dommeldange",
            "name": "Dommeldange"
        },
        {
            "id": "BE.NMBS.008200110",
            "longitude": "6.106111",
            "latitude": "49.748893",
            "@id": "http://irail.be/stations/NMBS/008200110",
            "standardname": "Mersch",
            "name": "Mersch"
        },
        {
            "id": "BE.NMBS.008200120",
            "longitude": "6.104169",
            "latitude": "49.847496",
            "@id": "http://irail.be/stations/NMBS/008200120",
            "standardname": "Ettelbréck",
            "name": "Ettelbréck"
        },
        {
            "id": "BE.NMBS.008200130",
            "longitude": "6.020003",
            "latitude": "49.952777",
            "@id": "http://irail.be/stations/NMBS/008200130",
            "standardname": "Kautebaach",
            "name": "Kautebaach"
        },
        {
            "id": "BE.NMBS.008200132",
            "longitude": "5.999166",
            "latitude": "49.988887",
            "@id": "http://irail.be/stations/NMBS/008200132",
            "standardname": "Wilwerwiltz",
            "name": "Wilwerwiltz"
        },
        {
            "id": "BE.NMBS.008200133",
            "longitude": "6.006106",
            "latitude": "50.017778",
            "@id": "http://irail.be/stations/NMBS/008200133",
            "standardname": "Drauffelt",
            "name": "Drauffelt"
        },
        {
            "id": "BE.NMBS.008200134",
            "longitude": "6.031393",
            "latitude": "50.054724",
            "@id": "http://irail.be/stations/NMBS/008200134",
            "standardname": "Clervaux",
            "name": "Clervaux"
        },
        {
            "id": "BE.NMBS.008200136",
            "longitude": "6.000281",
            "latitude": "50.121109",
            "@id": "http://irail.be/stations/NMBS/008200136",
            "standardname": "Troisvierges",
            "name": "Troisvierges"
        },
        {
            "id": "BE.NMBS.008200510",
            "longitude": "6.060601",
            "latitude": "49.613002",
            "@id": "http://irail.be/stations/NMBS/008200510",
            "standardname": "Bertrange Strassen",
            "name": "Bertrange Strassen"
        },
        {
            "id": "BE.NMBS.008200516",
            "longitude": "6.02014",
            "latitude": "49.625663",
            "@id": "http://irail.be/stations/NMBS/008200516",
            "standardname": "Mamer",
            "name": "Mamer"
        },
        {
            "id": "BE.NMBS.008200518",
            "longitude": "5.982265",
            "latitude": "49.638463",
            "@id": "http://irail.be/stations/NMBS/008200518",
            "standardname": "Capellen",
            "name": "Capellen"
        },
        {
            "id": "BE.NMBS.008200520",
            "longitude": "5.916385",
            "latitude": "49.646389",
            "@id": "http://irail.be/stations/NMBS/008200520",
            "standardname": "Klengbetten",
            "name": "Klengbetten"
        },
        {
            "id": "BE.NMBS.008200940",
            "longitude": "5.845028",
            "latitude": "49.551283",
            "@id": "http://irail.be/stations/NMBS/008200940",
            "standardname": "Rodange",
            "name": "Rodange"
        },
        {
            "id": "BE.NMBS.008210014",
            "longitude": "6.02968",
            "latitude": "49.618415",
            "@id": "http://irail.be/stations/NMBS/008210014",
            "standardname": "Mamer-Lycée",
            "name": "Mamer-Lycée"
        },
        {
            "id": "BE.NMBS.008400058",
            "longitude": "4.900272",
            "latitude": "52.379128",
            "@id": "http://irail.be/stations/NMBS/008400058",
            "standardname": "Amsterdam CS",
            "name": "Amsterdam CS"
        },
        {
            "id": "BE.NMBS.008400180",
            "longitude": "4.666668",
            "latitude": "51.799998",
            "@id": "http://irail.be/stations/NMBS/008400180",
            "standardname": "Dordrecht",
            "name": "Dordrecht"
        },
        {
            "id": "BE.NMBS.008400219",
            "longitude": "5.709786",
            "latitude": "50.772135",
            "@id": "http://irail.be/stations/NMBS/008400219",
            "standardname": "Eijsden",
            "name": "Eijsden"
        },
        {
            "id": "BE.NMBS.008400280",
            "longitude": "4.299999",
            "latitude": "52.083329",
            "@id": "http://irail.be/stations/NMBS/008400280",
            "standardname": "Den Haag HS",
            "name": "Den Haag HS"
        },
        {
            "id": "BE.NMBS.008400424",
            "longitude": "5.683331",
            "latitude": "50.85",
            "@id": "http://irail.be/stations/NMBS/008400424",
            "standardname": "Maastricht",
            "name": "Maastricht"
        },
        {
            "id": "BE.NMBS.008400426",
            "longitude": "5.716707",
            "latitude": "50.838502",
            "@id": "http://irail.be/stations/NMBS/008400426",
            "standardname": "Maastricht Randwyck",
            "name": "Maastricht Randwyck"
        },
        {
            "id": "BE.NMBS.008400526",
            "longitude": "4.466667",
            "latitude": "51.533333",
            "@id": "http://irail.be/stations/NMBS/008400526",
            "standardname": "Roosendaal",
            "name": "Roosendaal"
        },
        {
            "id": "BE.NMBS.008400530",
            "longitude": "4.469424",
            "latitude": "51.925093",
            "@id": "http://irail.be/stations/NMBS/008400530",
            "standardname": "Rotterdam CS",
            "name": "Rotterdam CS"
        },
        {
            "id": "BE.NMBS.008400561",
            "longitude": "4.762268",
            "latitude": "52.308294",
            "@id": "http://irail.be/stations/NMBS/008400561",
            "standardname": "Schiphol",
            "name": "Schiphol"
        },
        {
            "id": "BE.NMBS.008500010",
            "longitude": "7.590716",
            "latitude": "47.547408",
            "@id": "http://irail.be/stations/NMBS/008500010",
            "standardname": "Basel",
            "name": "Basel"
        },
        {
            "id": "BE.NMBS.008711184",
            "longitude": "2.782184",
            "latitude": "48.868256",
            "@id": "http://irail.be/stations/NMBS/008711184",
            "standardname": "Marne-la-Vallée - Chessy",
            "name": "Marne-la-Vallée - Chessy"
        },
        {
            "id": "BE.NMBS.008718201",
            "longitude": "7.366668",
            "latitude": "48.083335",
            "@id": "http://irail.be/stations/NMBS/008718201",
            "standardname": "Colmar",
            "name": "Colmar"
        },
        {
            "id": "BE.NMBS.008718206",
            "longitude": "7.333336",
            "latitude": "47.749998",
            "@id": "http://irail.be/stations/NMBS/008718206",
            "standardname": "Mulhouse",
            "name": "Mulhouse"
        },
        {
            "id": "BE.NMBS.008718213",
            "longitude": "7.555316",
            "latitude": "47.5907",
            "@id": "http://irail.be/stations/NMBS/008718213",
            "standardname": "Saint-Louis-Haut-Rhin",
            "name": "Saint-Louis-Haut-Rhin"
        },
        {
            "id": "BE.NMBS.008719100",
            "longitude": "6.166663",
            "latitude": "49.366663",
            "@id": "http://irail.be/stations/NMBS/008719100",
            "standardname": "Thionville",
            "name": "Thionville"
        },
        {
            "id": "BE.NMBS.008719203",
            "longitude": "6.166663",
            "latitude": "49.13333",
            "@id": "http://irail.be/stations/NMBS/008719203",
            "standardname": "Metz",
            "name": "Metz"
        },
        {
            "id": "BE.NMBS.008721202",
            "longitude": "7.733905",
            "latitude": "48.585437",
            "@id": "http://irail.be/stations/NMBS/008721202",
            "standardname": "Strasbourg",
            "name": "Strasbourg"
        },
        {
            "id": "BE.NMBS.008721222",
            "longitude": "7.362255",
            "latitude": "48.744798",
            "@id": "http://irail.be/stations/NMBS/008721222",
            "standardname": "Saverne",
            "name": "Saverne"
        },
        {
            "id": "BE.NMBS.008721405",
            "longitude": "7.449999",
            "latitude": "48.26667",
            "@id": "http://irail.be/stations/NMBS/008721405",
            "standardname": "Selestat",
            "name": "Selestat"
        },
        {
            "id": "BE.NMBS.008722326",
            "longitude": "3.071516",
            "latitude": "50.636108",
            "@id": "http://irail.be/stations/NMBS/008722326",
            "standardname": "Lille Europe",
            "name": "Lille Europe"
        },
        {
            "id": "BE.NMBS.008727100",
            "longitude": "2.3553093",
            "latitude": "48.8809984",
            "@id": "http://irail.be/stations/NMBS/008727100",
            "standardname": "Paris Nord",
            "name": "Paris Nord"
        },
        {
            "id": "BE.NMBS.008727149",
            "longitude": "2.571123",
            "latitude": "49.003955",
            "@id": "http://irail.be/stations/NMBS/008727149",
            "standardname": "Aéroport Charles-de-Gaulle TGV",
            "name": "Aéroport Charles-de-Gaulle TGV"
        },
        {
            "id": "BE.NMBS.008728105",
            "longitude": "3.13381",
            "latitude": "50.675708",
            "@id": "http://irail.be/stations/NMBS/008728105",
            "standardname": "Croix l'Allumette",
            "name": "Croix l'Allumette"
        },
        {
            "id": "BE.NMBS.008728600",
            "longitude": "3.066669",
            "latitude": "50.633333",
            "@id": "http://irail.be/stations/NMBS/008728600",
            "standardname": "Lille Flandres",
            "name": "Lille Flandres"
        },
        {
            "id": "BE.NMBS.008728606",
            "longitude": "3.108892",
            "latitude": "50.626941",
            "@id": "http://irail.be/stations/NMBS/008728606",
            "standardname": "Hellemmes",
            "name": "Hellemmes"
        },
        {
            "id": "BE.NMBS.008728654",
            "longitude": "3.168033",
            "latitude": "50.716663",
            "@id": "http://irail.be/stations/NMBS/008728654",
            "standardname": "Tourcoing",
            "name": "Tourcoing"
        },
        {
            "id": "BE.NMBS.008728671",
            "longitude": "3.149272",
            "latitude": "50.6764687",
            "@id": "http://irail.be/stations/NMBS/008728671",
            "standardname": "Croix Wasquehal",
            "name": "Croix Wasquehal"
        },
        {
            "id": "BE.NMBS.008728673",
            "longitude": "3.166666",
            "latitude": "50.699997",
            "@id": "http://irail.be/stations/NMBS/008728673",
            "standardname": "Roubaix",
            "name": "Roubaix"
        },
        {
            "id": "BE.NMBS.008728683",
            "longitude": "3.1275",
            "latitude": "50.624164",
            "@id": "http://irail.be/stations/NMBS/008728683",
            "standardname": "Pont de Bois",
            "name": "Pont de Bois"
        },
        {
            "id": "BE.NMBS.008728685",
            "longitude": "3.1473086",
            "latitude": "50.6228168",
            "@id": "http://irail.be/stations/NMBS/008728685",
            "standardname": "Annappes",
            "name": "Annappes"
        },
        {
            "id": "BE.NMBS.008728686",
            "longitude": "3.166666",
            "latitude": "50.616666",
            "@id": "http://irail.be/stations/NMBS/008728686",
            "standardname": "Ascq",
            "name": "Ascq"
        },
        {
            "id": "BE.NMBS.008728687",
            "longitude": "3.2378999",
            "latitude": "50.610039",
            "@id": "http://irail.be/stations/NMBS/008728687",
            "standardname": "Baisieux",
            "name": "Baisieux"
        },
        {
            "id": "BE.NMBS.008728710",
            "longitude": "3.116667",
            "latitude": "50.616666",
            "@id": "http://irail.be/stations/NMBS/008728710",
            "standardname": "Lezennes",
            "name": "Lezennes"
        },
        {
            "id": "BE.NMBS.008731388",
            "longitude": "2.802566",
            "latitude": "49.623044",
            "@id": "http://irail.be/stations/NMBS/008731388",
            "standardname": "Haute-Picardie TGV",
            "name": "Haute-Picardie TGV"
        },
        {
            "id": "BE.NMBS.008731896",
            "longitude": "4.785841",
            "latitude": "43.921433",
            "@id": "http://irail.be/stations/NMBS/008731896",
            "standardname": "Avignon TGV",
            "name": "Avignon TGV"
        },
        {
            "id": "BE.NMBS.008731901",
            "longitude": "5.317243",
            "latitude": "43.455128",
            "@id": "http://irail.be/stations/NMBS/008731901",
            "standardname": "Aix-en-Provence TGV",
            "name": "Aix-en-Provence TGV"
        },
        {
            "id": "BE.NMBS.008772202",
            "longitude": "4.825301",
            "latitude": "45.748360",
            "@id": "http://irail.be/stations/NMBS/008772202",
            "standardname": "Lyon-Perrache TGV",
            "name": "Lyon-Perrache TGV"
        },
        {
            "id": "BE.NMBS.008772319",
            "longitude": "4.8594013",
            "latitude": "45.7612738",
            "@id": "http://irail.be/stations/NMBS/008772319",
            "standardname": "Lyon Part Dieu TGV",
            "name": "Lyon Part Dieu TGV"
        },
        {
            "id": "BE.NMBS.008774100",
            "longitude": "5.919756",
            "latitude": "45.571498",
            "@id": "http://irail.be/stations/NMBS/008774100",
            "standardname": "Chambéry-Challes-les-Eaux",
            "name": "Chambéry-Challes-les-Eaux"
        },
        {
            "id": "BE.NMBS.008774164",
            "longitude": "6.383617",
            "latitude": "45.673624",
            "@id": "http://irail.be/stations/NMBS/008774164",
            "standardname": "Albertville",
            "name": "Albertville"
        },
        {
            "id": "BE.NMBS.008774172",
            "longitude": "6.531454",
            "latitude": "45.486693",
            "@id": "http://irail.be/stations/NMBS/008774172",
            "standardname": "Moûtiers-Salins-Brides-les-Bai",
            "name": "Moûtiers-Salins-Brides-les-Bai"
        },
        {
            "id": "BE.NMBS.008774176",
            "longitude": "6.648394",
            "latitude": "45.554202",
            "@id": "http://irail.be/stations/NMBS/008774176",
            "standardname": "Aime-la-Plagne",
            "name": "Aime-la-Plagne"
        },
        {
            "id": "BE.NMBS.008774177",
            "longitude": "6.733522",
            "latitude": "45.574194",
            "@id": "http://irail.be/stations/NMBS/008774177",
            "standardname": "Landry",
            "name": "Landry"
        },
        {
            "id": "BE.NMBS.008774179",
            "longitude": "6.771664",
            "latitude": "45.618826",
            "@id": "http://irail.be/stations/NMBS/008774179",
            "standardname": "Bourg-Saint-Maurice",
            "name": "Bourg-Saint-Maurice"
        },
        {
            "id": "BE.NMBS.008775100",
            "longitude": "5.380752",
            "latitude": "43.303178",
            "@id": "http://irail.be/stations/NMBS/008775100",
            "standardname": "Marseille-Saint-Charles",
            "name": "Marseille-Saint-Charles"
        },
        {
            "id": "BE.NMBS.008775500",
            "longitude": "5.9326648",
            "latitude": "43.1274781",
            "@id": "http://irail.be/stations/NMBS/008775500",
            "standardname": "Toulon",
            "name": "Toulon"
        },
        {
            "id": "BE.NMBS.008775544",
            "longitude": "6.4826446",
            "latitude": "43.4555673",
            "@id": "http://irail.be/stations/NMBS/008775544",
            "standardname": "Les Arcs - Draguignan",
            "name": "Les Arcs - Draguignan"
        },
        {
            "id": "BE.NMBS.008775605",
            "longitude": "7.261928",
            "latitude": "43.704605",
            "@id": "http://irail.be/stations/NMBS/008775605",
            "standardname": "Nice Ville",
            "name": "Nice Ville"
        },
        {
            "id": "BE.NMBS.008775752",
            "longitude": "6.768825",
            "latitude": "43.423456",
            "@id": "http://irail.be/stations/NMBS/008775752",
            "standardname": "Saint-Raphaël-Valescure",
            "name": "Saint-Raphaël-Valescure"
        },
        {
            "id": "BE.NMBS.008775762",
            "longitude": "7.019895",
            "latitude": "43.553742",
            "@id": "http://irail.be/stations/NMBS/008775762",
            "standardname": "Cannes",
            "name": "Cannes"
        },
        {
            "id": "BE.NMBS.008775767",
            "longitude": "7.1201361",
            "latitude": "43.586618",
            "@id": "http://irail.be/stations/NMBS/008775767",
            "standardname": "Antibes",
            "name": "Antibes"
        },
        {
            "id": "BE.NMBS.008776290",
            "longitude": "5.075822",
            "latitude": "45.720907",
            "@id": "http://irail.be/stations/NMBS/008776290",
            "standardname": "Lyon-Saint Exupéry TGV",
            "name": "Lyon-Saint Exupéry TGV"
        },
        {
            "id": "BE.NMBS.008776302",
            "longitude": "4.978529",
            "latitude": "44.992586",
            "@id": "http://irail.be/stations/NMBS/008776302",
            "standardname": "Valence TGV",
            "name": "Valence TGV"
        },
        {
            "id": "BE.NMBS.008777300",
            "longitude": "3.880534",
            "latitude": "43.604947",
            "@id": "http://irail.be/stations/NMBS/008777300",
            "standardname": "Montpellier",
            "name": "Montpellier"
        },
        {
            "id": "BE.NMBS.008777320",
            "longitude": "3.696535",
            "latitude": "43.412810",
            "@id": "http://irail.be/stations/NMBS/008777320",
            "standardname": "Sète",
            "name": "Sète"
        },
        {
            "id": "BE.NMBS.008777500",
            "longitude": "4.365997",
            "latitude": "43.832602",
            "@id": "http://irail.be/stations/NMBS/008777500",
            "standardname": "Nîmes",
            "name": "Nîmes"
        },
        {
            "id": "BE.NMBS.008778100",
            "longitude": "3.218794",
            "latitude": "43.336177",
            "@id": "http://irail.be/stations/NMBS/008778100",
            "standardname": "Béziers",
            "name": "Béziers"
        },
        {
            "id": "BE.NMBS.008778110",
            "longitude": "3.006010",
            "latitude": "43.190399",
            "@id": "http://irail.be/stations/NMBS/008778110",
            "standardname": "Narbonne",
            "name": "Narbonne"
        },
        {
            "id": "BE.NMBS.008778127",
            "longitude": "3.465800",
            "latitude": "43.317498",
            "@id": "http://irail.be/stations/NMBS/008778127",
            "standardname": "Agde",
            "name": "Agde"
        },
        {
            "id": "BE.NMBS.008778400",
            "longitude": "2.879397",
            "latitude": "42.695938",
            "@id": "http://irail.be/stations/NMBS/008778400",
            "standardname": "Perpignan",
            "name": "Perpignan"
        },
        {
            "id": "BE.NMBS.008811007",
            "longitude": "4.378636",
            "latitude": "50.878513",
            "@id": "http://irail.be/stations/NMBS/008811007",
            "standardname": "Schaarbeek/Schaerbeek",
            "name": "Schaarbeek/Schaerbeek"
        },
        {
            "id": "BE.NMBS.008811106",
            "longitude": "4.400965",
            "latitude": "50.86778",
            "@id": "http://irail.be/stations/NMBS/008811106",
            "standardname": "Evere",
            "name": "Evere"
        },
        {
            "id": "BE.NMBS.008811130",
            "longitude": "4.415357",
            "latitude": "50.889696",
            "@id": "http://irail.be/stations/NMBS/008811130",
            "standardname": "Haren-Sud/Haren-Zuid",
            "name": "Haren-Sud/Haren-Zuid"
        },
        {
            "id": "BE.NMBS.008811148",
            "longitude": "4.417074",
            "latitude": "50.907495",
            "@id": "http://irail.be/stations/NMBS/008811148",
            "standardname": "Buda",
            "name": "Buda"
        },
        {
            "id": "BE.NMBS.008811155",
            "longitude": "4.419978",
            "latitude": "50.888878",
            "@id": "http://irail.be/stations/NMBS/008811155",
            "standardname": "Haren",
            "name": "Haren"
        },
        {
            "id": "BE.NMBS.008811163",
            "longitude": "4.410026",
            "latitude": "50.877785",
            "@id": "http://irail.be/stations/NMBS/008811163",
            "standardname": "Bordet",
            "name": "Bordet"
        },
        {
            "id": "BE.NMBS.008811171",
            "longitude": "4.394421",
            "latitude": "50.854072",
            "@id": "http://irail.be/stations/NMBS/008811171",
            "standardname": "Meiser",
            "name": "Meiser"
        },
        {
            "id": "BE.NMBS.008811189",
            "longitude": "4.432823",
            "latitude": "50.924583",
            "@id": "http://irail.be/stations/NMBS/008811189",
            "standardname": "Vilvoorde",
            "name": "Vilvoorde"
        },
        {
            "id": "BE.NMBS.008811197",
            "longitude": "4.398934",
            "latitude": "50.839284",
            "@id": "http://irail.be/stations/NMBS/008811197",
            "standardname": "Merode",
            "name": "Merode"
        },
        {
            "id": "BE.NMBS.008811205",
            "longitude": "4.403869",
            "latitude": "50.818357",
            "@id": "http://irail.be/stations/NMBS/008811205",
            "standardname": "Delta",
            "name": "Delta"
        },
        {
            "id": "BE.NMBS.008811213",
            "longitude": "4.442774",
            "latitude": "50.890478",
            "@id": "http://irail.be/stations/NMBS/008811213",
            "standardname": "Diegem",
            "name": "Diegem"
        },
        {
            "id": "BE.NMBS.008811221",
            "longitude": "4.469886",
            "latitude": "50.885723",
            "@id": "http://irail.be/stations/NMBS/008811221",
            "standardname": "Zaventem",
            "name": "Zaventem"
        },
        {
            "id": "BE.NMBS.008811247",
            "longitude": "4.506112",
            "latitude": "50.883314",
            "@id": "http://irail.be/stations/NMBS/008811247",
            "standardname": "Nossegem",
            "name": "Nossegem"
        },
        {
            "id": "BE.NMBS.008811254",
            "longitude": "4.543301",
            "latitude": "50.893067",
            "@id": "http://irail.be/stations/NMBS/008811254",
            "standardname": "Kortenberg",
            "name": "Kortenberg"
        },
        {
            "id": "BE.NMBS.008811262",
            "longitude": "4.585001",
            "latitude": "50.89651",
            "@id": "http://irail.be/stations/NMBS/008811262",
            "standardname": "Erps-Kwerps",
            "name": "Erps-Kwerps"
        },
        {
            "id": "BE.NMBS.008811270",
            "longitude": "4.633516",
            "latitude": "50.900519",
            "@id": "http://irail.be/stations/NMBS/008811270",
            "standardname": "Veltem",
            "name": "Veltem"
        },
        {
            "id": "BE.NMBS.008811288",
            "longitude": "4.672188",
            "latitude": "50.90353",
            "@id": "http://irail.be/stations/NMBS/008811288",
            "standardname": "Herent",
            "name": "Herent"
        },
        {
            "id": "BE.NMBS.008811304",
            "longitude": "4.373674",
            "latitude": "50.838943",
            "@id": "http://irail.be/stations/NMBS/008811304",
            "name": "Brussels-Luxemburg/Brussels-Luxembourg",
            "standardname": "Brussel-Luxemburg/Bruxelles-Luxembourg"
        },
        {
            "id": "BE.NMBS.008811403",
            "longitude": "4.37866",
            "latitude": "50.829929",
            "@id": "http://irail.be/stations/NMBS/008811403",
            "name": "Mouterij",
            "standardname": "Mouterij/Germoir"
        },
        {
            "id": "BE.NMBS.008811411",
            "longitude": "4.389513",
            "latitude": "50.822187",
            "@id": "http://irail.be/stations/NMBS/008811411",
            "standardname": "Etterbeek",
            "name": "Etterbeek"
        },
        {
            "id": "BE.NMBS.008811429",
            "longitude": "4.399887",
            "latitude": "50.80917",
            "@id": "http://irail.be/stations/NMBS/008811429",
            "standardname": "Watermaal/Watermael",
            "name": "Watermaal/Watermael"
        },
        {
            "id": "BE.NMBS.008811437",
            "longitude": "4.408112",
            "latitude": "50.794698",
            "@id": "http://irail.be/stations/NMBS/008811437",
            "standardname": "Bosvoorde/Boitsfort",
            "name": "Bosvoorde/Boitsfort"
        },
        {
            "id": "BE.NMBS.008811445",
            "longitude": "4.449489",
            "latitude": "50.766103",
            "@id": "http://irail.be/stations/NMBS/008811445",
            "standardname": "Groenendaal",
            "name": "Groenendaal"
        },
        {
            "id": "BE.NMBS.008811460",
            "longitude": "4.467414",
            "latitude": "50.760161",
            "@id": "http://irail.be/stations/NMBS/008811460",
            "standardname": "Hoeilaart",
            "name": "Hoeilaart"
        },
        {
            "id": "BE.NMBS.008811510",
            "longitude": "4.49706",
            "latitude": "50.737958",
            "@id": "http://irail.be/stations/NMBS/008811510",
            "standardname": "La Hulpe",
            "name": "La Hulpe"
        },
        {
            "id": "BE.NMBS.008811528",
            "longitude": "4.514832",
            "latitude": "50.725697",
            "@id": "http://irail.be/stations/NMBS/008811528",
            "standardname": "Genval",
            "name": "Genval"
        },
        {
            "id": "BE.NMBS.008811536",
            "longitude": "4.532855",
            "latitude": "50.711413",
            "@id": "http://irail.be/stations/NMBS/008811536",
            "standardname": "Rixensart",
            "name": "Rixensart"
        },
        {
            "id": "BE.NMBS.008811544",
            "longitude": "4.549153",
            "latitude": "50.693758",
            "@id": "http://irail.be/stations/NMBS/008811544",
            "standardname": "Profondsart",
            "name": "Profondsart"
        },
        {
            "id": "BE.NMBS.008811601",
            "longitude": "4.56936",
            "latitude": "50.673667",
            "@id": "http://irail.be/stations/NMBS/008811601",
            "standardname": "Ottignies",
            "name": "Ottignies"
        },
        {
            "id": "BE.NMBS.008811635",
            "longitude": "4.575302",
            "latitude": "50.69214",
            "@id": "http://irail.be/stations/NMBS/008811635",
            "standardname": "Limal",
            "name": "Limal"
        },
        {
            "id": "BE.NMBS.008811676",
            "longitude": "4.615745",
            "latitude": "50.669793",
            "@id": "http://irail.be/stations/NMBS/008811676",
            "standardname": "Louvain-la-Neuve-Université",
            "name": "Louvain-la-Neuve-Université"
        },
        {
            "id": "BE.NMBS.008811718",
            "longitude": "4.594746",
            "latitude": "50.707772",
            "@id": "http://irail.be/stations/NMBS/008811718",
            "standardname": "Bierges-Walibi",
            "name": "Bierges-Walibi"
        },
        {
            "id": "BE.NMBS.008811726",
            "longitude": "4.604778",
            "latitude": "50.716267",
            "@id": "http://irail.be/stations/NMBS/008811726",
            "standardname": "Wavre",
            "name": "Wavre"
        },
        {
            "id": "BE.NMBS.008811734",
            "longitude": "4.621651",
            "latitude": "50.72442",
            "@id": "http://irail.be/stations/NMBS/008811734",
            "standardname": "Basse-Wavre",
            "name": "Basse-Wavre"
        },
        {
            "id": "BE.NMBS.008811742",
            "longitude": "4.649598",
            "latitude": "50.736646",
            "@id": "http://irail.be/stations/NMBS/008811742",
            "standardname": "Gastuche",
            "name": "Gastuche"
        },
        {
            "id": "BE.NMBS.008811759",
            "longitude": "4.662444",
            "latitude": "50.754345",
            "@id": "http://irail.be/stations/NMBS/008811759",
            "standardname": "Archennes",
            "name": "Archennes"
        },
        {
            "id": "BE.NMBS.008811767",
            "longitude": "4.653868",
            "latitude": "50.761501",
            "@id": "http://irail.be/stations/NMBS/008811767",
            "standardname": "Florival",
            "name": "Florival"
        },
        {
            "id": "BE.NMBS.008811775",
            "longitude": "4.651486",
            "latitude": "50.778517",
            "@id": "http://irail.be/stations/NMBS/008811775",
            "standardname": "Pécrot",
            "name": "Pécrot"
        },
        {
            "id": "BE.NMBS.008811817",
            "longitude": "4.569046",
            "latitude": "50.659941",
            "@id": "http://irail.be/stations/NMBS/008811817",
            "standardname": "Ceroux-Mousty",
            "name": "Ceroux-Mousty"
        },
        {
            "id": "BE.NMBS.008811825",
            "longitude": "4.565819",
            "latitude": "50.645567",
            "@id": "http://irail.be/stations/NMBS/008811825",
            "standardname": "Court-Saint-Étienne",
            "name": "Court-Saint-Étienne"
        },
        {
            "id": "BE.NMBS.008811916",
            "longitude": "4.380722",
            "latitude": "50.843276",
            "@id": "http://irail.be/stations/NMBS/008811916",
            "name": "Brussels-Schuman",
            "standardname": "Brussel-Schuman/Bruxelles-Schuman"
        },
        {
            "id": "BE.NMBS.008812005",
            "longitude": "4.360846",
            "latitude": "50.859663",
            "@id": "http://irail.be/stations/NMBS/008812005",
            "name": "Brussels-North",
            "standardname": "Brussel-Noord/Bruxelles-Nord"
        },
        {
            "id": "BE.NMBS.008812013",
            "longitude": "4.32898",
            "latitude": "50.863645",
            "@id": "http://irail.be/stations/NMBS/008812013",
            "standardname": "Simonis",
            "name": "Simonis"
        },
        {
            "id": "BE.NMBS.008812021",
            "longitude": "4.348513",
            "latitude": "50.87943",
            "@id": "http://irail.be/stations/NMBS/008812021",
            "standardname": "Bockstael",
            "name": "Bockstael"
        },
        {
            "id": "BE.NMBS.008812047",
            "longitude": "4.32622",
            "latitude": "50.880833",
            "@id": "http://irail.be/stations/NMBS/008812047",
            "standardname": "Jette",
            "name": "Jette"
        },
        {
            "id": "BE.NMBS.008812062",
            "longitude": "4.274541",
            "latitude": "50.890028",
            "@id": "http://irail.be/stations/NMBS/008812062",
            "standardname": "Zellik",
            "name": "Zellik"
        },
        {
            "id": "BE.NMBS.008812070",
            "longitude": "4.207985",
            "latitude": "50.906488",
            "@id": "http://irail.be/stations/NMBS/008812070",
            "standardname": "Asse",
            "name": "Asse"
        },
        {
            "id": "BE.NMBS.008812112",
            "longitude": "4.216965",
            "latitude": "50.933473",
            "@id": "http://irail.be/stations/NMBS/008812112",
            "standardname": "Mollem",
            "name": "Mollem"
        },
        {
            "id": "BE.NMBS.008812120",
            "longitude": "4.222718",
            "latitude": "50.954958",
            "@id": "http://irail.be/stations/NMBS/008812120",
            "standardname": "Merchtem",
            "name": "Merchtem"
        },
        {
            "id": "BE.NMBS.008812146",
            "longitude": "4.187319",
            "latitude": "50.974779",
            "@id": "http://irail.be/stations/NMBS/008812146",
            "standardname": "Opwijk",
            "name": "Opwijk"
        },
        {
            "id": "BE.NMBS.008812153",
            "longitude": "4.156171",
            "latitude": "50.989593",
            "@id": "http://irail.be/stations/NMBS/008812153",
            "standardname": "Heizijde",
            "name": "Heizijde"
        },
        {
            "id": "BE.NMBS.008812161",
            "longitude": "4.134372",
            "latitude": "51.005009",
            "@id": "http://irail.be/stations/NMBS/008812161",
            "standardname": "Lebbeke",
            "name": "Lebbeke"
        },
        {
            "id": "BE.NMBS.008812211",
            "longitude": "4.289895",
            "latitude": "50.872625",
            "@id": "http://irail.be/stations/NMBS/008812211",
            "standardname": "Sint-Agatha-Berchem/Berchem-Sainte-Agathe",
            "name": "Sint-Agatha-Berchem/Berchem-Sainte-Agathe"
        },
        {
            "id": "BE.NMBS.008812229",
            "longitude": "4.273543",
            "latitude": "50.868337",
            "@id": "http://irail.be/stations/NMBS/008812229",
            "standardname": "Groot-Bijgaarden",
            "name": "Groot-Bijgaarden"
        },
        {
            "id": "BE.NMBS.008812237",
            "longitude": "4.243393",
            "latitude": "50.866728",
            "@id": "http://irail.be/stations/NMBS/008812237",
            "standardname": "Dilbeek",
            "name": "Dilbeek"
        },
        {
            "id": "BE.NMBS.008812245",
            "longitude": "4.205081",
            "latitude": "50.86716",
            "@id": "http://irail.be/stations/NMBS/008812245",
            "standardname": "Sint-Martens-Bodegem",
            "name": "Sint-Martens-Bodegem"
        },
        {
            "id": "BE.NMBS.008812252",
            "longitude": "4.16534",
            "latitude": "50.874522",
            "@id": "http://irail.be/stations/NMBS/008812252",
            "standardname": "Ternat",
            "name": "Ternat"
        },
        {
            "id": "BE.NMBS.008812260",
            "longitude": "4.115171",
            "latitude": "50.882451",
            "@id": "http://irail.be/stations/NMBS/008812260",
            "standardname": "Essene-Lombeek",
            "name": "Essene-Lombeek"
        },
        {
            "id": "BE.NMBS.008813003",
            "longitude": "4.356801",
            "latitude": "50.845658",
            "@id": "http://irail.be/stations/NMBS/008813003",
            "name": "Brussels-Central",
            "standardname": "Brussel-Centraal/Bruxelles-Central"
        },
        {
            "id": "BE.NMBS.008813037",
            "longitude": "4.347866",
            "latitude": "50.841127",
            "@id": "http://irail.be/stations/NMBS/008813037",
            "name": "Brussels-Chapelle/Brussels-Kapellekerk",
            "standardname": "Brussel-Kapellekerk/Bruxelles-Chapelle"
        },
        {
            "id": "BE.NMBS.008813045",
            "longitude": "4.362051",
            "latitude": "50.852067",
            "@id": "http://irail.be/stations/NMBS/008813045",
            "name": "Brussels-Congres",
            "standardname": "Brussel-Congres/Bruxelles-Congrès"
        },
        {
            "id": "BE.NMBS.008814001",
            "longitude": "4.336531",
            "latitude": "50.835707",
            "@id": "http://irail.be/stations/NMBS/008814001",
            "name": "Brussels-South/Brussels-Midi",
            "standardname": "Brussel-Zuid/Bruxelles-Midi"
        },
        {
            "id": "BE.NMBS.008814118",
            "longitude": "4.320943",
            "latitude": "50.810195",
            "@id": "http://irail.be/stations/NMBS/008814118",
            "standardname": "Vorst-Oost/Forest-Est",
            "name": "Vorst-Oost/Forest-Est"
        },
        {
            "id": "BE.NMBS.008814126",
            "longitude": "4.323901",
            "latitude": "50.802411",
            "@id": "http://irail.be/stations/NMBS/008814126",
            "standardname": "Ukkel-Stalle/Uccle-Stalle",
            "name": "Ukkel-Stalle/Uccle-Stalle"
        },
        {
            "id": "BE.NMBS.008814134",
            "longitude": "4.332207",
            "latitude": "50.791749",
            "@id": "http://irail.be/stations/NMBS/008814134",
            "standardname": "Ukkel-Kalevoet/Uccle-Calevoet",
            "name": "Ukkel-Kalevoet/Uccle-Calevoet"
        },
        {
            "id": "BE.NMBS.008814142",
            "longitude": "4.339434",
            "latitude": "50.773681",
            "@id": "http://irail.be/stations/NMBS/008814142",
            "standardname": "Linkebeek",
            "name": "Linkebeek"
        },
        {
            "id": "BE.NMBS.008814159",
            "longitude": "4.353952",
            "latitude": "50.767631",
            "@id": "http://irail.be/stations/NMBS/008814159",
            "standardname": "Holleken",
            "name": "Holleken"
        },
        {
            "id": "BE.NMBS.008814167",
            "longitude": "4.361997",
            "latitude": "50.74781",
            "@id": "http://irail.be/stations/NMBS/008814167",
            "standardname": "Sint-Genesius-Rode",
            "name": "Sint-Genesius-Rode"
        },
        {
            "id": "BE.NMBS.008814175",
            "longitude": "4.370717",
            "latitude": "50.738812",
            "@id": "http://irail.be/stations/NMBS/008814175",
            "standardname": "De Hoek",
            "name": "De Hoek"
        },
        {
            "id": "BE.NMBS.008814209",
            "longitude": "4.335065",
            "latitude": "50.599641",
            "@id": "http://irail.be/stations/NMBS/008814209",
            "standardname": "Nivelles",
            "name": "Nivelles"
        },
        {
            "id": "BE.NMBS.008814241",
            "longitude": "4.365368",
            "latitude": "50.645423",
            "@id": "http://irail.be/stations/NMBS/008814241",
            "standardname": "Lillois",
            "name": "Lillois"
        },
        {
            "id": "BE.NMBS.008814258",
            "longitude": "4.375526",
            "latitude": "50.684778",
            "@id": "http://irail.be/stations/NMBS/008814258",
            "standardname": "Braine-l'Alleud",
            "name": "Braine-l'Alleud"
        },
        {
            "id": "BE.NMBS.008814266",
            "longitude": "4.383481",
            "latitude": "50.715422",
            "@id": "http://irail.be/stations/NMBS/008814266",
            "standardname": "Waterloo",
            "name": "Waterloo"
        },
        {
            "id": "BE.NMBS.008814308",
            "longitude": "4.240634",
            "latitude": "50.733931",
            "@id": "http://irail.be/stations/NMBS/008814308",
            "standardname": "Halle",
            "name": "Halle"
        },
        {
            "id": "BE.NMBS.008814332",
            "longitude": "4.221577",
            "latitude": "50.715107",
            "@id": "http://irail.be/stations/NMBS/008814332",
            "standardname": "Lembeek",
            "name": "Lembeek"
        },
        {
            "id": "BE.NMBS.008814340",
            "longitude": "4.258558",
            "latitude": "50.751577",
            "@id": "http://irail.be/stations/NMBS/008814340",
            "standardname": "Buizingen",
            "name": "Buizingen"
        },
        {
            "id": "BE.NMBS.008814357",
            "longitude": "4.273696",
            "latitude": "50.766364",
            "@id": "http://irail.be/stations/NMBS/008814357",
            "standardname": "Lot",
            "name": "Lot"
        },
        {
            "id": "BE.NMBS.008814365",
            "longitude": "4.295333",
            "latitude": "50.79183",
            "@id": "http://irail.be/stations/NMBS/008814365",
            "standardname": "Ruisbroek",
            "name": "Ruisbroek"
        },
        {
            "id": "BE.NMBS.008814373",
            "longitude": "4.309167",
            "latitude": "50.809215",
            "@id": "http://irail.be/stations/NMBS/008814373",
            "standardname": "Vorst-Zuid/Forest-Midi",
            "name": "Vorst-Zuid/Forest-Midi"
        },
        {
            "id": "BE.NMBS.008814415",
            "longitude": "4.266487",
            "latitude": "50.7519",
            "@id": "http://irail.be/stations/NMBS/008814415",
            "standardname": "Huizingen",
            "name": "Huizingen"
        },
        {
            "id": "BE.NMBS.008814423",
            "longitude": "4.302605",
            "latitude": "50.766616",
            "@id": "http://irail.be/stations/NMBS/008814423",
            "standardname": "Beersel",
            "name": "Beersel"
        },
        {
            "id": "BE.NMBS.008814431",
            "longitude": "4.330733",
            "latitude": "50.77832",
            "@id": "http://irail.be/stations/NMBS/008814431",
            "standardname": "Moensberg",
            "name": "Moensberg"
        },
        {
            "id": "BE.NMBS.008814449",
            "longitude": "4.362761",
            "latitude": "50.79441",
            "@id": "http://irail.be/stations/NMBS/008814449",
            "standardname": "Sint-Job",
            "name": "Sint-Job"
        },
        {
            "id": "BE.NMBS.008814456",
            "longitude": "4.393387",
            "latitude": "50.801665",
            "@id": "http://irail.be/stations/NMBS/008814456",
            "standardname": "Boondaal/Boondael",
            "name": "Boondaal/Boondael"
        },
        {
            "id": "BE.NMBS.008814464",
            "longitude": "4.374052",
            "latitude": "50.796145",
            "@id": "http://irail.be/stations/NMBS/008814464",
            "standardname": "Diesdelle/Vivier d'Oie",
            "name": "Diesdelle/Vivier d'Oie"
        },
        {
            "id": "BE.NMBS.008814472",
            "longitude": "4.398333",
            "latitude": "50.809722",
            "@id": "http://irail.be/stations/NMBS/008814472",
            "standardname": "Arcaden/Arcades",
            "name": "Arcaden/Arcades"
        },
        {
            "id": "BE.NMBS.008815016",
            "longitude": "4.341090917587279",
            "latitude": "50.87175167644673",
            "@id": "http://irail.be/stations/NMBS/008815016",
            "name": "Thurn en Taxis",
            "standardname": "Thurn en Taxis/Tour et Taxis"
        },
        {
            "id": "BE.NMBS.008815040",
            "longitude": "4.321042",
            "latitude": "50.848552",
            "@id": "http://irail.be/stations/NMBS/008815040",
            "name": "Brussels-West",
            "standardname": "Brussel-West/Bruxelles-Ouest"
        },
        {
            "id": "BE.NMBS.008819406",
            "longitude": "4.482076",
            "latitude": "50.896456",
            "@id": "http://irail.be/stations/NMBS/008819406",
            "standardname": "Brussels Airport - Zaventem",
            "name": "Brussels Airport - Zaventem"
        },
        {
            "id": "BE.NMBS.008821006",
            "longitude": "4.421101",
            "latitude": "51.2172",
            "@id": "http://irail.be/stations/NMBS/008821006",
            "name": "Antwerp-Central",
            "standardname": "Antwerpen-Centraal"
        },
        {
            "id": "BE.NMBS.008821022",
            "longitude": "4.436392",
            "latitude": "51.207357",
            "@id": "http://irail.be/stations/NMBS/008821022",
            "name": "Antwerp-East",
            "standardname": "Antwerpen-Oost"
        },
        {
            "id": "BE.NMBS.008821048",
            "longitude": "4.379086",
            "latitude": "51.289968",
            "@id": "http://irail.be/stations/NMBS/008821048",
            "name": "Antwerp-Haven",
            "standardname": "Antwerpen-Haven"
        },
        {
            "id": "BE.NMBS.008821063",
            "longitude": "4.425029",
            "latitude": "51.244132",
            "@id": "http://irail.be/stations/NMBS/008821063",
            "name": "Antwerp-Luchtbal",
            "standardname": "Antwerpen-Luchtbal"
        },
        {
            "id": "BE.NMBS.008821071",
            "longitude": "4.434154",
            "latitude": "51.281626",
            "@id": "http://irail.be/stations/NMBS/008821071",
            "standardname": "Ekeren",
            "name": "Ekeren"
        },
        {
            "id": "BE.NMBS.008821089",
            "longitude": "4.427906",
            "latitude": "51.261643",
            "@id": "http://irail.be/stations/NMBS/008821089",
            "name": "Antwerp-Noorderdokken",
            "standardname": "Antwerpen-Noorderdokken"
        },
        {
            "id": "BE.NMBS.008821105",
            "longitude": "4.632204",
            "latitude": "51.356838",
            "@id": "http://irail.be/stations/NMBS/008821105",
            "standardname": "Noorderkempen",
            "name": "Noorderkempen"
        },
        {
            "id": "BE.NMBS.008821121",
            "longitude": "4.432221",
            "latitude": "51.19923",
            "@id": "http://irail.be/stations/NMBS/008821121",
            "name": "Antwerp-Berchem",
            "standardname": "Antwerpen-Berchem"
        },
        {
            "id": "BE.NMBS.008821147",
            "longitude": "4.448437",
            "latitude": "51.18296",
            "@id": "http://irail.be/stations/NMBS/008821147",
            "standardname": "Mortsel",
            "name": "Mortsel"
        },
        {
            "id": "BE.NMBS.008821154",
            "longitude": "4.446514",
            "latitude": "51.183023",
            "@id": "http://irail.be/stations/NMBS/008821154",
            "standardname": "Mortsel-Deurnesteenweg",
            "name": "Mortsel-Deurnesteenweg"
        },
        {
            "id": "BE.NMBS.008821196",
            "longitude": "4.390259",
            "latitude": "51.197828",
            "@id": "http://irail.be/stations/NMBS/008821196",
            "name": "Antwerp-South",
            "standardname": "Antwerpen-Zuid"
        },
        {
            "id": "BE.NMBS.008821238",
            "longitude": "4.455737",
            "latitude": "51.171256",
            "@id": "http://irail.be/stations/NMBS/008821238",
            "standardname": "Mortsel-Oude God",
            "name": "Mortsel-Oude God"
        },
        {
            "id": "BE.NMBS.008821246",
            "longitude": "4.468843",
            "latitude": "51.169027",
            "@id": "http://irail.be/stations/NMBS/008821246",
            "standardname": "Mortsel-Liersesteenweg",
            "name": "Mortsel-Liersesteenweg"
        },
        {
            "id": "BE.NMBS.008821311",
            "longitude": "4.476358",
            "latitude": "51.134023",
            "@id": "http://irail.be/stations/NMBS/008821311",
            "standardname": "Kontich-Lint",
            "name": "Kontich-Lint"
        },
        {
            "id": "BE.NMBS.008821337",
            "longitude": "4.465157",
            "latitude": "51.154114",
            "@id": "http://irail.be/stations/NMBS/008821337",
            "standardname": "Hove",
            "name": "Hove"
        },
        {
            "id": "BE.NMBS.008821402",
            "longitude": "4.451314",
            "latitude": "51.462767",
            "@id": "http://irail.be/stations/NMBS/008821402",
            "standardname": "Essen",
            "name": "Essen"
        },
        {
            "id": "BE.NMBS.008821436",
            "longitude": "4.46335",
            "latitude": "51.428087",
            "@id": "http://irail.be/stations/NMBS/008821436",
            "standardname": "Wildert",
            "name": "Wildert"
        },
        {
            "id": "BE.NMBS.008821444",
            "longitude": "4.46682",
            "latitude": "51.391177",
            "@id": "http://irail.be/stations/NMBS/008821444",
            "standardname": "Kalmthout",
            "name": "Kalmthout"
        },
        {
            "id": "BE.NMBS.008821451",
            "longitude": "4.467315",
            "latitude": "51.378664",
            "@id": "http://irail.be/stations/NMBS/008821451",
            "standardname": "Kijkuit",
            "name": "Kijkuit"
        },
        {
            "id": "BE.NMBS.008821519",
            "longitude": "4.460483",
            "latitude": "51.364623",
            "@id": "http://irail.be/stations/NMBS/008821519",
            "standardname": "Heide",
            "name": "Heide"
        },
        {
            "id": "BE.NMBS.008821535",
            "longitude": "4.432661",
            "latitude": "51.313528",
            "@id": "http://irail.be/stations/NMBS/008821535",
            "standardname": "Kapellen",
            "name": "Kapellen"
        },
        {
            "id": "BE.NMBS.008821543",
            "longitude": "4.4349",
            "latitude": "51.291658",
            "@id": "http://irail.be/stations/NMBS/008821543",
            "standardname": "Sint-Mariaburg",
            "name": "Sint-Mariaburg"
        },
        {
            "id": "BE.NMBS.008821600",
            "longitude": "4.560614",
            "latitude": "51.135758",
            "@id": "http://irail.be/stations/NMBS/008821600",
            "standardname": "Lier",
            "name": "Lier"
        },
        {
            "id": "BE.NMBS.008821634",
            "longitude": "4.494489",
            "latitude": "51.16348",
            "@id": "http://irail.be/stations/NMBS/008821634",
            "standardname": "Boechout",
            "name": "Boechout"
        },
        {
            "id": "BE.NMBS.008821659",
            "longitude": "4.618459",
            "latitude": "51.151057",
            "@id": "http://irail.be/stations/NMBS/008821659",
            "standardname": "Kessel",
            "name": "Kessel"
        },
        {
            "id": "BE.NMBS.008821667",
            "longitude": "4.666588",
            "latitude": "51.15984",
            "@id": "http://irail.be/stations/NMBS/008821667",
            "standardname": "Nijlen",
            "name": "Nijlen"
        },
        {
            "id": "BE.NMBS.008821709",
            "longitude": "4.786144",
            "latitude": "51.168361",
            "@id": "http://irail.be/stations/NMBS/008821709",
            "standardname": "Wolfstee",
            "name": "Wolfstee"
        },
        {
            "id": "BE.NMBS.008821717",
            "longitude": "4.829535",
            "latitude": "51.181513",
            "@id": "http://irail.be/stations/NMBS/008821717",
            "standardname": "Herentals",
            "name": "Herentals"
        },
        {
            "id": "BE.NMBS.008821725",
            "longitude": "4.746511",
            "latitude": "51.165764",
            "@id": "http://irail.be/stations/NMBS/008821725",
            "standardname": "Bouwel",
            "name": "Bouwel"
        },
        {
            "id": "BE.NMBS.008821816",
            "longitude": "4.638811",
            "latitude": "51.113662",
            "@id": "http://irail.be/stations/NMBS/008821816",
            "standardname": "Berlaar",
            "name": "Berlaar"
        },
        {
            "id": "BE.NMBS.008821824",
            "longitude": "4.671532",
            "latitude": "51.094938",
            "@id": "http://irail.be/stations/NMBS/008821824",
            "standardname": "Melkouwen",
            "name": "Melkouwen"
        },
        {
            "id": "BE.NMBS.008821832",
            "longitude": "4.708235",
            "latitude": "51.074146",
            "@id": "http://irail.be/stations/NMBS/008821832",
            "standardname": "Heist-op-den-Berg",
            "name": "Heist-op-den-Berg"
        },
        {
            "id": "BE.NMBS.008821857",
            "longitude": "4.773478",
            "latitude": "51.037344",
            "@id": "http://irail.be/stations/NMBS/008821857",
            "standardname": "Booischot",
            "name": "Booischot"
        },
        {
            "id": "BE.NMBS.008821865",
            "longitude": "4.800338",
            "latitude": "51.021972",
            "@id": "http://irail.be/stations/NMBS/008821865",
            "standardname": "Begijnendijk",
            "name": "Begijnendijk"
        },
        {
            "id": "BE.NMBS.008821907",
            "longitude": "4.937415",
            "latitude": "51.322032",
            "@id": "http://irail.be/stations/NMBS/008821907",
            "standardname": "Turnhout",
            "name": "Turnhout"
        },
        {
            "id": "BE.NMBS.008821964",
            "longitude": "4.893089",
            "latitude": "51.241021",
            "@id": "http://irail.be/stations/NMBS/008821964",
            "standardname": "Tielen",
            "name": "Tielen"
        },
        {
            "id": "BE.NMBS.008822004",
            "longitude": "4.482785",
            "latitude": "51.017648",
            "@id": "http://irail.be/stations/NMBS/008822004",
            "standardname": "Mechelen",
            "name": "Mechelen"
        },
        {
            "id": "BE.NMBS.008822053",
            "longitude": "4.359121",
            "latitude": "51.010843",
            "@id": "http://irail.be/stations/NMBS/008822053",
            "standardname": "Kapelle-op-den-Bos",
            "name": "Kapelle-op-den-Bos"
        },
        {
            "id": "BE.NMBS.008822111",
            "longitude": "4.299073",
            "latitude": "51.009091",
            "@id": "http://irail.be/stations/NMBS/008822111",
            "standardname": "Londerzeel",
            "name": "Londerzeel"
        },
        {
            "id": "BE.NMBS.008822137",
            "longitude": "4.22911",
            "latitude": "51.014484",
            "@id": "http://irail.be/stations/NMBS/008822137",
            "standardname": "Malderen",
            "name": "Malderen"
        },
        {
            "id": "BE.NMBS.008822145",
            "longitude": "4.201666",
            "latitude": "51.016291",
            "@id": "http://irail.be/stations/NMBS/008822145",
            "standardname": "Buggenhout",
            "name": "Buggenhout"
        },
        {
            "id": "BE.NMBS.008822160",
            "longitude": "4.153492",
            "latitude": "51.019437",
            "@id": "http://irail.be/stations/NMBS/008822160",
            "standardname": "Baasrode-Zuid",
            "name": "Baasrode-Zuid"
        },
        {
            "id": "BE.NMBS.008822210",
            "longitude": "4.493186",
            "latitude": "51.091243",
            "@id": "http://irail.be/stations/NMBS/008822210",
            "standardname": "Duffel",
            "name": "Duffel"
        },
        {
            "id": "BE.NMBS.008822228",
            "longitude": "4.496116",
            "latitude": "51.069975",
            "@id": "http://irail.be/stations/NMBS/008822228",
            "standardname": "Sint-Katelijne-Waver",
            "name": "Sint-Katelijne-Waver"
        },
        {
            "id": "BE.NMBS.008822251",
            "longitude": "4.470937",
            "latitude": "50.977449",
            "@id": "http://irail.be/stations/NMBS/008822251",
            "standardname": "Weerde",
            "name": "Weerde"
        },
        {
            "id": "BE.NMBS.008822269",
            "longitude": "4.45749",
            "latitude": "50.9584",
            "@id": "http://irail.be/stations/NMBS/008822269",
            "standardname": "Eppegem",
            "name": "Eppegem"
        },
        {
            "id": "BE.NMBS.008822277",
            "longitude": "4.498336",
            "latitude": "50.988658",
            "@id": "http://irail.be/stations/NMBS/008822277",
            "standardname": "Hofstade",
            "name": "Hofstade"
        },
        {
            "id": "BE.NMBS.008822343",
            "longitude": "4.489914",
            "latitude": "51.029883",
            "@id": "http://irail.be/stations/NMBS/008822343",
            "standardname": "Mechelen-Nekkerspoel",
            "name": "Mechelen-Nekkerspoel"
        },
        {
            "id": "BE.NMBS.008822426",
            "longitude": "4.513843",
            "latitude": "51.008201",
            "@id": "http://irail.be/stations/NMBS/008822426",
            "standardname": "Muizen",
            "name": "Muizen"
        },
        {
            "id": "BE.NMBS.008822459",
            "longitude": "4.537637",
            "latitude": "50.997791",
            "@id": "http://irail.be/stations/NMBS/008822459",
            "standardname": "Hever",
            "name": "Hever"
        },
        {
            "id": "BE.NMBS.008822475",
            "longitude": "4.5739",
            "latitude": "50.981853",
            "@id": "http://irail.be/stations/NMBS/008822475",
            "standardname": "Boortmeerbeek",
            "name": "Boortmeerbeek"
        },
        {
            "id": "BE.NMBS.008822517",
            "longitude": "4.613309",
            "latitude": "50.966428",
            "@id": "http://irail.be/stations/NMBS/008822517",
            "standardname": "Haacht",
            "name": "Haacht"
        },
        {
            "id": "BE.NMBS.008822525",
            "longitude": "4.638011",
            "latitude": "50.958544",
            "@id": "http://irail.be/stations/NMBS/008822525",
            "standardname": "Wespelaar-Tildonk",
            "name": "Wespelaar-Tildonk"
        },
        {
            "id": "BE.NMBS.008822533",
            "longitude": "4.66301",
            "latitude": "50.944251",
            "@id": "http://irail.be/stations/NMBS/008822533",
            "standardname": "Hambos",
            "name": "Hambos"
        },
        {
            "id": "BE.NMBS.008822608",
            "longitude": "4.356019",
            "latitude": "51.066343",
            "@id": "http://irail.be/stations/NMBS/008822608",
            "standardname": "Willebroek",
            "name": "Willebroek"
        },
        {
            "id": "BE.NMBS.008822715",
            "longitude": "4.282703",
            "latitude": "51.07722",
            "@id": "http://irail.be/stations/NMBS/008822715",
            "standardname": "Puurs",
            "name": "Puurs"
        },
        {
            "id": "BE.NMBS.008822772",
            "longitude": "4.240526",
            "latitude": "51.099225",
            "@id": "http://irail.be/stations/NMBS/008822772",
            "standardname": "Bornem",
            "name": "Bornem"
        },
        {
            "id": "BE.NMBS.008822814",
            "longitude": "4.360694",
            "latitude": "51.090713",
            "@id": "http://irail.be/stations/NMBS/008822814",
            "standardname": "Boom",
            "name": "Boom"
        },
        {
            "id": "BE.NMBS.008822848",
            "longitude": "4.324998",
            "latitude": "51.081022",
            "@id": "http://irail.be/stations/NMBS/008822848",
            "standardname": "Ruisbroek-Sauvegarde",
            "name": "Ruisbroek-Sauvegarde"
        },
        {
            "id": "BE.NMBS.008824158",
            "longitude": "4.347785",
            "latitude": "51.182699",
            "@id": "http://irail.be/stations/NMBS/008824158",
            "standardname": "Hoboken-Polder",
            "name": "Hoboken-Polder"
        },
        {
            "id": "BE.NMBS.008824224",
            "longitude": "4.338293",
            "latitude": "51.136243",
            "@id": "http://irail.be/stations/NMBS/008824224",
            "standardname": "Hemiksem",
            "name": "Hemiksem"
        },
        {
            "id": "BE.NMBS.008824232",
            "longitude": "4.340261",
            "latitude": "51.12551",
            "@id": "http://irail.be/stations/NMBS/008824232",
            "standardname": "Schelle",
            "name": "Schelle"
        },
        {
            "id": "BE.NMBS.008824240",
            "longitude": "4.338589",
            "latitude": "51.111595",
            "@id": "http://irail.be/stations/NMBS/008824240",
            "standardname": "Niel",
            "name": "Niel"
        },
        {
            "id": "BE.NMBS.008831005",
            "longitude": "5.327627",
            "latitude": "50.930822",
            "@id": "http://irail.be/stations/NMBS/008831005",
            "standardname": "Hasselt",
            "name": "Hasselt"
        },
        {
            "id": "BE.NMBS.008831039",
            "longitude": "5.292866",
            "latitude": "50.886837",
            "@id": "http://irail.be/stations/NMBS/008831039",
            "standardname": "Alken",
            "name": "Alken"
        },
        {
            "id": "BE.NMBS.008831088",
            "longitude": "5.187405",
            "latitude": "50.963758",
            "@id": "http://irail.be/stations/NMBS/008831088",
            "standardname": "Schulen",
            "name": "Schulen"
        },
        {
            "id": "BE.NMBS.008831112",
            "longitude": "5.419947",
            "latitude": "50.910452",
            "@id": "http://irail.be/stations/NMBS/008831112",
            "standardname": "Diepenbeek",
            "name": "Diepenbeek"
        },
        {
            "id": "BE.NMBS.008831138",
            "longitude": "5.50938",
            "latitude": "50.868643",
            "@id": "http://irail.be/stations/NMBS/008831138",
            "standardname": "Bilzen",
            "name": "Bilzen"
        },
        {
            "id": "BE.NMBS.008831310",
            "longitude": "5.47328",
            "latitude": "50.784405",
            "@id": "http://irail.be/stations/NMBS/008831310",
            "standardname": "Tongeren",
            "name": "Tongeren"
        },
        {
            "id": "BE.NMBS.008831401",
            "longitude": "5.050031",
            "latitude": "50.993341",
            "@id": "http://irail.be/stations/NMBS/008831401",
            "standardname": "Diest",
            "name": "Diest"
        },
        {
            "id": "BE.NMBS.008831765",
            "longitude": "5.497685",
            "latitude": "50.967057",
            "@id": "http://irail.be/stations/NMBS/008831765",
            "standardname": "Genk",
            "name": "Genk"
        },
        {
            "id": "BE.NMBS.008831781",
            "longitude": "5.408386",
            "latitude": "50.955812",
            "@id": "http://irail.be/stations/NMBS/008831781",
            "standardname": "Bokrijk",
            "name": "Bokrijk"
        },
        {
            "id": "BE.NMBS.008831807",
            "longitude": "5.176654",
            "latitude": "50.81762",
            "@id": "http://irail.be/stations/NMBS/008831807",
            "standardname": "Sint-Truiden",
            "name": "Sint-Truiden"
        },
        {
            "id": "BE.NMBS.008832003",
            "longitude": "5.257287",
            "latitude": "51.117312",
            "@id": "http://irail.be/stations/NMBS/008832003",
            "standardname": "Leopoldsburg",
            "name": "Leopoldsburg"
        },
        {
            "id": "BE.NMBS.008832045",
            "longitude": "5.164986",
            "latitude": "51.169099",
            "@id": "http://irail.be/stations/NMBS/008832045",
            "standardname": "Balen",
            "name": "Balen"
        },
        {
            "id": "BE.NMBS.008832227",
            "longitude": "5.234373",
            "latitude": "51.087719",
            "@id": "http://irail.be/stations/NMBS/008832227",
            "standardname": "Beverlo",
            "name": "Beverlo"
        },
        {
            "id": "BE.NMBS.008832235",
            "longitude": "5.235892",
            "latitude": "51.050603",
            "@id": "http://irail.be/stations/NMBS/008832235",
            "standardname": "Beringen",
            "name": "Beringen"
        },
        {
            "id": "BE.NMBS.008832243",
            "longitude": "5.281782",
            "latitude": "51.038207",
            "@id": "http://irail.be/stations/NMBS/008832243",
            "standardname": "Heusden",
            "name": "Heusden"
        },
        {
            "id": "BE.NMBS.008832250",
            "longitude": "5.3299",
            "latitude": "51.033548",
            "@id": "http://irail.be/stations/NMBS/008832250",
            "standardname": "Zolder",
            "name": "Zolder"
        },
        {
            "id": "BE.NMBS.008832334",
            "longitude": "5.348815",
            "latitude": "50.989557",
            "@id": "http://irail.be/stations/NMBS/008832334",
            "standardname": "Zonhoven",
            "name": "Zonhoven"
        },
        {
            "id": "BE.NMBS.008832375",
            "longitude": "5.350226",
            "latitude": "50.954841",
            "@id": "http://irail.be/stations/NMBS/008832375",
            "standardname": "Kiewit",
            "name": "Kiewit"
        },
        {
            "id": "BE.NMBS.008832409",
            "longitude": "5.116336",
            "latitude": "51.19105",
            "@id": "http://irail.be/stations/NMBS/008832409",
            "standardname": "Mol",
            "name": "Mol"
        },
        {
            "id": "BE.NMBS.008832433",
            "longitude": "4.988608",
            "latitude": "51.168955",
            "@id": "http://irail.be/stations/NMBS/008832433",
            "standardname": "Geel",
            "name": "Geel"
        },
        {
            "id": "BE.NMBS.008832458",
            "longitude": "4.847585",
            "latitude": "51.188057",
            "@id": "http://irail.be/stations/NMBS/008832458",
            "standardname": "Olen",
            "name": "Olen"
        },
        {
            "id": "BE.NMBS.008832565",
            "longitude": "5.312031",
            "latitude": "51.211564",
            "@id": "http://irail.be/stations/NMBS/008832565",
            "standardname": "Lommel",
            "name": "Lommel"
        },
        {
            "id": "BE.NMBS.008832573",
            "longitude": "5.422751",
            "latitude": "51.215618",
            "@id": "http://irail.be/stations/NMBS/008832573",
            "standardname": "Overpelt",
            "name": "Overpelt"
        },
        {
            "id": "BE.NMBS.008832615",
            "longitude": "5.43717",
            "latitude": "51.222369",
            "@id": "http://irail.be/stations/NMBS/008832615",
            "standardname": "Neerpelt",
            "name": "Neerpelt"
        },
        {
            "id": "BE.NMBS.008832664",
            "longitude": "5.543279",
            "latitude": "51.246424",
            "@id": "http://irail.be/stations/NMBS/008832664",
            "standardname": "Hamont",
            "name": "Hamont"
        },
        {
            "id": "BE.NMBS.008833001",
            "longitude": "4.715866",
            "latitude": "50.88228",
            "@id": "http://irail.be/stations/NMBS/008833001",
            "standardname": "Leuven",
            "name": "Leuven"
        },
        {
            "id": "BE.NMBS.008833050",
            "longitude": "4.835522",
            "latitude": "50.836282",
            "@id": "http://irail.be/stations/NMBS/008833050",
            "standardname": "Vertrijk",
            "name": "Vertrijk"
        },
        {
            "id": "BE.NMBS.008833126",
            "longitude": "4.6952",
            "latitude": "50.86253",
            "@id": "http://irail.be/stations/NMBS/008833126",
            "standardname": "Heverlee",
            "name": "Heverlee"
        },
        {
            "id": "BE.NMBS.008833134",
            "longitude": "4.653311",
            "latitude": "50.835931",
            "@id": "http://irail.be/stations/NMBS/008833134",
            "standardname": "Oud-Heverlee",
            "name": "Oud-Heverlee"
        },
        {
            "id": "BE.NMBS.008833159",
            "longitude": "4.651728",
            "latitude": "50.800631",
            "@id": "http://irail.be/stations/NMBS/008833159",
            "standardname": "Sint-Joris-Weert",
            "name": "Sint-Joris-Weert"
        },
        {
            "id": "BE.NMBS.008833175",
            "longitude": "4.701475",
            "latitude": "50.92274",
            "@id": "http://irail.be/stations/NMBS/008833175",
            "standardname": "Wijgmaal",
            "name": "Wijgmaal"
        },
        {
            "id": "BE.NMBS.008833209",
            "longitude": "4.824043",
            "latitude": "50.984406",
            "@id": "http://irail.be/stations/NMBS/008833209",
            "standardname": "Aarschot",
            "name": "Aarschot"
        },
        {
            "id": "BE.NMBS.008833233",
            "longitude": "4.747679",
            "latitude": "50.956261",
            "@id": "http://irail.be/stations/NMBS/008833233",
            "standardname": "Wezemaal",
            "name": "Wezemaal"
        },
        {
            "id": "BE.NMBS.008833258",
            "longitude": "4.863541",
            "latitude": "51.002466",
            "@id": "http://irail.be/stations/NMBS/008833258",
            "standardname": "Langdorp",
            "name": "Langdorp"
        },
        {
            "id": "BE.NMBS.008833266",
            "longitude": "4.945829",
            "latitude": "51.009864",
            "@id": "http://irail.be/stations/NMBS/008833266",
            "standardname": "Testelt",
            "name": "Testelt"
        },
        {
            "id": "BE.NMBS.008833274",
            "longitude": "4.987359",
            "latitude": "51.00669",
            "@id": "http://irail.be/stations/NMBS/008833274",
            "standardname": "Zichem",
            "name": "Zichem"
        },
        {
            "id": "BE.NMBS.008833308",
            "longitude": "4.92581",
            "latitude": "50.80802",
            "@id": "http://irail.be/stations/NMBS/008833308",
            "standardname": "Tienen",
            "name": "Tienen"
        },
        {
            "id": "BE.NMBS.008833449",
            "longitude": "4.994217",
            "latitude": "50.772126",
            "@id": "http://irail.be/stations/NMBS/008833449",
            "standardname": "Ezemaal",
            "name": "Ezemaal"
        },
        {
            "id": "BE.NMBS.008833605",
            "longitude": "5.07966",
            "latitude": "50.747927",
            "@id": "http://irail.be/stations/NMBS/008833605",
            "standardname": "Landen",
            "name": "Landen"
        },
        {
            "id": "BE.NMBS.008833670",
            "longitude": "5.036323",
            "latitude": "50.763964",
            "@id": "http://irail.be/stations/NMBS/008833670",
            "standardname": "Neerwinden",
            "name": "Neerwinden"
        },
        {
            "id": "BE.NMBS.008841004",
            "longitude": "5.566695",
            "latitude": "50.62455",
            "@id": "http://irail.be/stations/NMBS/008841004",
            "standardname": "Liège-Guillemins",
            "name": "Liège-Guillemins"
        },
        {
            "id": "BE.NMBS.008841202",
            "longitude": "5.509704",
            "latitude": "50.661208",
            "@id": "http://irail.be/stations/NMBS/008841202",
            "standardname": "Ans",
            "name": "Ans"
        },
        {
            "id": "BE.NMBS.008841319",
            "longitude": "5.460551",
            "latitude": "50.65861",
            "@id": "http://irail.be/stations/NMBS/008841319",
            "standardname": "Bierset-Awans",
            "name": "Bierset-Awans"
        },
        {
            "id": "BE.NMBS.008841327",
            "longitude": "5.429556",
            "latitude": "50.66181",
            "@id": "http://irail.be/stations/NMBS/008841327",
            "standardname": "Voroux",
            "name": "Voroux"
        },
        {
            "id": "BE.NMBS.008841400",
            "longitude": "5.249475",
            "latitude": "50.694549",
            "@id": "http://irail.be/stations/NMBS/008841400",
            "standardname": "Waremme",
            "name": "Waremme"
        },
        {
            "id": "BE.NMBS.008841434",
            "longitude": "5.286394",
            "latitude": "50.685065",
            "@id": "http://irail.be/stations/NMBS/008841434",
            "standardname": "Bleret",
            "name": "Bleret"
        },
        {
            "id": "BE.NMBS.008841442",
            "longitude": "5.321407",
            "latitude": "50.678611",
            "@id": "http://irail.be/stations/NMBS/008841442",
            "standardname": "Remicourt",
            "name": "Remicourt"
        },
        {
            "id": "BE.NMBS.008841459",
            "longitude": "5.367602",
            "latitude": "50.66991",
            "@id": "http://irail.be/stations/NMBS/008841459",
            "standardname": "Momalle",
            "name": "Momalle"
        },
        {
            "id": "BE.NMBS.008841467",
            "longitude": "5.398453",
            "latitude": "50.664049",
            "@id": "http://irail.be/stations/NMBS/008841467",
            "standardname": "Fexhe-le-Haut-Clocher",
            "name": "Fexhe-le-Haut-Clocher"
        },
        {
            "id": "BE.NMBS.008841525",
            "longitude": "5.570453",
            "latitude": "50.646349",
            "@id": "http://irail.be/stations/NMBS/008841525",
            "standardname": "Liège-Palais",
            "name": "Liège-Palais"
        },
        {
            "id": "BE.NMBS.008841558",
            "longitude": "5.561131",
            "latitude": "50.640299",
            "@id": "http://irail.be/stations/NMBS/008841558",
            "standardname": "Liège-Jonfosse",
            "name": "Liège-Jonfosse"
        },
        {
            "id": "BE.NMBS.008841608",
            "longitude": "5.622761",
            "latitude": "50.660911",
            "@id": "http://irail.be/stations/NMBS/008841608",
            "standardname": "Herstal",
            "name": "Herstal"
        },
        {
            "id": "BE.NMBS.008841665",
            "longitude": "5.60009",
            "latitude": "50.692455",
            "@id": "http://irail.be/stations/NMBS/008841665",
            "standardname": "Milmort",
            "name": "Milmort"
        },
        {
            "id": "BE.NMBS.008841673",
            "longitude": "5.56683",
            "latitude": "50.698181",
            "@id": "http://irail.be/stations/NMBS/008841673",
            "standardname": "Liers",
            "name": "Liers"
        },
        {
            "id": "BE.NMBS.008841731",
            "longitude": "5.535431",
            "latitude": "50.750426",
            "@id": "http://irail.be/stations/NMBS/008841731",
            "standardname": "Glons",
            "name": "Glons"
        },
        {
            "id": "BE.NMBS.008842002",
            "longitude": "5.599695",
            "latitude": "50.613152",
            "@id": "http://irail.be/stations/NMBS/008842002",
            "standardname": "Angleur",
            "name": "Angleur"
        },
        {
            "id": "BE.NMBS.008842036",
            "longitude": "5.616073",
            "latitude": "50.608019",
            "@id": "http://irail.be/stations/NMBS/008842036",
            "standardname": "Chênée",
            "name": "Chênée"
        },
        {
            "id": "BE.NMBS.008842630",
            "longitude": "5.583937",
            "latitude": "50.570624",
            "@id": "http://irail.be/stations/NMBS/008842630",
            "standardname": "Tilff",
            "name": "Tilff"
        },
        {
            "id": "BE.NMBS.008842648",
            "longitude": "5.587236",
            "latitude": "50.54762",
            "@id": "http://irail.be/stations/NMBS/008842648",
            "standardname": "Méry",
            "name": "Méry"
        },
        {
            "id": "BE.NMBS.008842655",
            "longitude": "5.573563",
            "latitude": "50.539917",
            "@id": "http://irail.be/stations/NMBS/008842655",
            "standardname": "Hony",
            "name": "Hony"
        },
        {
            "id": "BE.NMBS.008842663",
            "longitude": "5.572565",
            "latitude": "50.530568",
            "@id": "http://irail.be/stations/NMBS/008842663",
            "standardname": "Esneux",
            "name": "Esneux"
        },
        {
            "id": "BE.NMBS.008842689",
            "longitude": "5.578858",
            "latitude": "50.509209",
            "@id": "http://irail.be/stations/NMBS/008842689",
            "standardname": "Poulseur",
            "name": "Poulseur"
        },
        {
            "id": "BE.NMBS.008842705",
            "longitude": "5.587631",
            "latitude": "50.483285",
            "@id": "http://irail.be/stations/NMBS/008842705",
            "standardname": "Rivage",
            "name": "Rivage"
        },
        {
            "id": "BE.NMBS.008842754",
            "longitude": "5.672499",
            "latitude": "50.472938",
            "@id": "http://irail.be/stations/NMBS/008842754",
            "standardname": "Aywaille",
            "name": "Aywaille"
        },
        {
            "id": "BE.NMBS.008842838",
            "longitude": "5.566956",
            "latitude": "50.456865",
            "@id": "http://irail.be/stations/NMBS/008842838",
            "standardname": "Comblain-la-Tour",
            "name": "Comblain-la-Tour"
        },
        {
            "id": "BE.NMBS.008842846",
            "longitude": "5.533561",
            "latitude": "50.428181",
            "@id": "http://irail.be/stations/NMBS/008842846",
            "standardname": "Hamoir",
            "name": "Hamoir"
        },
        {
            "id": "BE.NMBS.008842853",
            "longitude": "5.523565",
            "latitude": "50.403254",
            "@id": "http://irail.be/stations/NMBS/008842853",
            "standardname": "Sy",
            "name": "Sy"
        },
        {
            "id": "BE.NMBS.008843133",
            "longitude": "5.558911",
            "latitude": "50.609844",
            "@id": "http://irail.be/stations/NMBS/008843133",
            "standardname": "Sclessin",
            "name": "Sclessin"
        },
        {
            "id": "BE.NMBS.008843141",
            "longitude": "5.510162",
            "latitude": "50.619651",
            "@id": "http://irail.be/stations/NMBS/008843141",
            "standardname": "Pont-de-Seraing",
            "name": "Pont-de-Seraing"
        },
        {
            "id": "BE.NMBS.008843158",
            "longitude": "5.497874",
            "latitude": "50.618446",
            "@id": "http://irail.be/stations/NMBS/008843158",
            "standardname": "Jemeppe-sur-Meuse",
            "name": "Jemeppe-sur-Meuse"
        },
        {
            "id": "BE.NMBS.008843166",
            "longitude": "5.480983",
            "latitude": "50.605349",
            "@id": "http://irail.be/stations/NMBS/008843166",
            "standardname": "Flemalle-Grande",
            "name": "Flemalle-Grande"
        },
        {
            "id": "BE.NMBS.008843208",
            "longitude": "5.457656",
            "latitude": "50.595308",
            "@id": "http://irail.be/stations/NMBS/008843208",
            "standardname": "Flemalle-Haute",
            "name": "Flemalle-Haute"
        },
        {
            "id": "BE.NMBS.008843224",
            "longitude": "5.468309",
            "latitude": "50.600396",
            "@id": "http://irail.be/stations/NMBS/008843224",
            "standardname": "Leman",
            "name": "Leman"
        },
        {
            "id": "BE.NMBS.008843240",
            "longitude": "5.401986",
            "latitude": "50.582957",
            "@id": "http://irail.be/stations/NMBS/008843240",
            "standardname": "Engis",
            "name": "Engis"
        },
        {
            "id": "BE.NMBS.008843307",
            "longitude": "5.234211",
            "latitude": "50.527242",
            "@id": "http://irail.be/stations/NMBS/008843307",
            "standardname": "Huy",
            "name": "Huy"
        },
        {
            "id": "BE.NMBS.008843323",
            "longitude": "5.289729",
            "latitude": "50.539215",
            "@id": "http://irail.be/stations/NMBS/008843323",
            "standardname": "Ampsin",
            "name": "Ampsin"
        },
        {
            "id": "BE.NMBS.008843331",
            "longitude": "5.32049",
            "latitude": "50.546011",
            "@id": "http://irail.be/stations/NMBS/008843331",
            "standardname": "Amay",
            "name": "Amay"
        },
        {
            "id": "BE.NMBS.008843349",
            "longitude": "5.330333",
            "latitude": "50.55349",
            "@id": "http://irail.be/stations/NMBS/008843349",
            "standardname": "Haute-Flône",
            "name": "Haute-Flône"
        },
        {
            "id": "BE.NMBS.008843406",
            "longitude": "5.219676",
            "latitude": "50.528276",
            "@id": "http://irail.be/stations/NMBS/008843406",
            "standardname": "Statte",
            "name": "Statte"
        },
        {
            "id": "BE.NMBS.008843430",
            "longitude": "5.190937",
            "latitude": "50.52263",
            "@id": "http://irail.be/stations/NMBS/008843430",
            "standardname": "Bas-Oha",
            "name": "Bas-Oha"
        },
        {
            "id": "BE.NMBS.008843901",
            "longitude": "5.611057",
            "latitude": "50.643967",
            "@id": "http://irail.be/stations/NMBS/008843901",
            "standardname": "Bressoux",
            "name": "Bressoux"
        },
        {
            "id": "BE.NMBS.008844008",
            "longitude": "5.854917",
            "latitude": "50.588135",
            "@id": "http://irail.be/stations/NMBS/008844008",
            "standardname": "Verviers-Central",
            "name": "Verviers-Central"
        },
        {
            "id": "BE.NMBS.008844057",
            "longitude": "5.865335",
            "latitude": "50.590921",
            "@id": "http://irail.be/stations/NMBS/008844057",
            "standardname": "Verviers-Palais",
            "name": "Verviers-Palais"
        },
        {
            "id": "BE.NMBS.008844206",
            "longitude": "5.80615",
            "latitude": "50.568179",
            "@id": "http://irail.be/stations/NMBS/008844206",
            "standardname": "Pepinster",
            "name": "Pepinster"
        },
        {
            "id": "BE.NMBS.008844230",
            "longitude": "5.741581",
            "latitude": "50.572089",
            "@id": "http://irail.be/stations/NMBS/008844230",
            "standardname": "Nessonvaux",
            "name": "Nessonvaux"
        },
        {
            "id": "BE.NMBS.008844255",
            "longitude": "5.723665",
            "latitude": "50.565059",
            "@id": "http://irail.be/stations/NMBS/008844255",
            "standardname": "Fraipont",
            "name": "Fraipont"
        },
        {
            "id": "BE.NMBS.008844271",
            "longitude": "5.688346",
            "latitude": "50.573213",
            "@id": "http://irail.be/stations/NMBS/008844271",
            "standardname": "Trooz",
            "name": "Trooz"
        },
        {
            "id": "BE.NMBS.008844313",
            "longitude": "5.804397",
            "latitude": "50.563405",
            "@id": "http://irail.be/stations/NMBS/008844313",
            "standardname": "Pepinster-Cité",
            "name": "Pepinster-Cité"
        },
        {
            "id": "BE.NMBS.008844321",
            "longitude": "5.809935",
            "latitude": "50.544717",
            "@id": "http://irail.be/stations/NMBS/008844321",
            "standardname": "Juslenville",
            "name": "Juslenville"
        },
        {
            "id": "BE.NMBS.008844339",
            "longitude": "5.815031",
            "latitude": "50.536159",
            "@id": "http://irail.be/stations/NMBS/008844339",
            "standardname": "Theux",
            "name": "Theux"
        },
        {
            "id": "BE.NMBS.008844347",
            "longitude": "5.822223",
            "latitude": "50.525723",
            "@id": "http://irail.be/stations/NMBS/008844347",
            "standardname": "Franchimont",
            "name": "Franchimont"
        },
        {
            "id": "BE.NMBS.008844404",
            "longitude": "5.855096",
            "latitude": "50.490305",
            "@id": "http://irail.be/stations/NMBS/008844404",
            "standardname": "Spa",
            "name": "Spa"
        },
        {
            "id": "BE.NMBS.008844420",
            "longitude": "5.866207",
            "latitude": "50.489307",
            "@id": "http://irail.be/stations/NMBS/008844420",
            "standardname": "Spa-Géronstère",
            "name": "Spa-Géronstère"
        },
        {
            "id": "BE.NMBS.008844503",
            "longitude": "5.975381",
            "latitude": "50.659707",
            "@id": "http://irail.be/stations/NMBS/008844503",
            "standardname": "Welkenraedt",
            "name": "Welkenraedt"
        },
        {
            "id": "BE.NMBS.008844545",
            "longitude": "5.936494",
            "latitude": "50.616244",
            "@id": "http://irail.be/stations/NMBS/008844545",
            "standardname": "Dolhain-Gileppe",
            "name": "Dolhain-Gileppe"
        },
        {
            "id": "BE.NMBS.008844628",
            "longitude": "6.03711",
            "latitude": "50.635157",
            "@id": "http://irail.be/stations/NMBS/008844628",
            "standardname": "Eupen",
            "name": "Eupen"
        },
        {
            "id": "BE.NMBS.008844644",
            "longitude": "6.041335",
            "latitude": "50.718209",
            "@id": "http://irail.be/stations/NMBS/008844644",
            "standardname": "Hergenrath",
            "name": "Hergenrath"
        },
        {
            "id": "BE.NMBS.008845005",
            "longitude": "5.953906",
            "latitude": "50.189409",
            "@id": "http://irail.be/stations/NMBS/008845005",
            "standardname": "Gouvy",
            "name": "Gouvy"
        },
        {
            "id": "BE.NMBS.008845146",
            "longitude": "5.909211",
            "latitude": "50.278933",
            "@id": "http://irail.be/stations/NMBS/008845146",
            "standardname": "Vielsalm",
            "name": "Vielsalm"
        },
        {
            "id": "BE.NMBS.008845203",
            "longitude": "5.873578",
            "latitude": "50.368214",
            "@id": "http://irail.be/stations/NMBS/008845203",
            "standardname": "Trois-Ponts",
            "name": "Trois-Ponts"
        },
        {
            "id": "BE.NMBS.008845229",
            "longitude": "5.880473",
            "latitude": "50.391127",
            "@id": "http://irail.be/stations/NMBS/008845229",
            "standardname": "Coo",
            "name": "Coo"
        },
        {
            "id": "BE.NMBS.008846201",
            "longitude": "5.692544",
            "latitude": "50.73776",
            "@id": "http://irail.be/stations/NMBS/008846201",
            "standardname": "Visé",
            "name": "Visé"
        },
        {
            "id": "BE.NMBS.008861119",
            "longitude": "4.82842",
            "latitude": "50.457737",
            "@id": "http://irail.be/stations/NMBS/008861119",
            "standardname": "Ronet",
            "name": "Ronet"
        },
        {
            "id": "BE.NMBS.008861127",
            "longitude": "4.806298",
            "latitude": "50.456236",
            "@id": "http://irail.be/stations/NMBS/008861127",
            "standardname": "Flawinne",
            "name": "Flawinne"
        },
        {
            "id": "BE.NMBS.008861135",
            "longitude": "4.762368",
            "latitude": "50.443328",
            "@id": "http://irail.be/stations/NMBS/008861135",
            "standardname": "Floreffe",
            "name": "Floreffe"
        },
        {
            "id": "BE.NMBS.008861143",
            "longitude": "4.733548",
            "latitude": "50.439543",
            "@id": "http://irail.be/stations/NMBS/008861143",
            "standardname": "Franière",
            "name": "Franière"
        },
        {
            "id": "BE.NMBS.008861150",
            "longitude": "4.693807",
            "latitude": "50.452748",
            "@id": "http://irail.be/stations/NMBS/008861150",
            "standardname": "Moustier",
            "name": "Moustier"
        },
        {
            "id": "BE.NMBS.008861168",
            "longitude": "4.669392",
            "latitude": "50.45255",
            "@id": "http://irail.be/stations/NMBS/008861168",
            "standardname": "Ham-sur-Sambre",
            "name": "Ham-sur-Sambre"
        },
        {
            "id": "BE.NMBS.008861200",
            "longitude": "4.691497",
            "latitude": "50.570489",
            "@id": "http://irail.be/stations/NMBS/008861200",
            "standardname": "Gembloux",
            "name": "Gembloux"
        },
        {
            "id": "BE.NMBS.008861317",
            "longitude": "4.697627",
            "latitude": "50.557374",
            "@id": "http://irail.be/stations/NMBS/008861317",
            "standardname": "Chapelle-Dieu",
            "name": "Chapelle-Dieu"
        },
        {
            "id": "BE.NMBS.008861333",
            "longitude": "4.675829",
            "latitude": "50.513497",
            "@id": "http://irail.be/stations/NMBS/008861333",
            "standardname": "Mazy",
            "name": "Mazy"
        },
        {
            "id": "BE.NMBS.008861416",
            "longitude": "4.7201",
            "latitude": "50.551935",
            "@id": "http://irail.be/stations/NMBS/008861416",
            "standardname": "Lonzée",
            "name": "Lonzée"
        },
        {
            "id": "BE.NMBS.008861424",
            "longitude": "4.748533",
            "latitude": "50.534208",
            "@id": "http://irail.be/stations/NMBS/008861424",
            "standardname": "Beuzet",
            "name": "Beuzet"
        },
        {
            "id": "BE.NMBS.008861432",
            "longitude": "4.767788",
            "latitude": "50.5213",
            "@id": "http://irail.be/stations/NMBS/008861432",
            "standardname": "Saint-Denis-Bovesse",
            "name": "Saint-Denis-Bovesse"
        },
        {
            "id": "BE.NMBS.008861440",
            "longitude": "4.801866",
            "latitude": "50.499348",
            "@id": "http://irail.be/stations/NMBS/008861440",
            "standardname": "Rhisnes",
            "name": "Rhisnes"
        },
        {
            "id": "BE.NMBS.008861515",
            "longitude": "4.668538",
            "latitude": "50.590823",
            "@id": "http://irail.be/stations/NMBS/008861515",
            "standardname": "Ernage",
            "name": "Ernage"
        },
        {
            "id": "BE.NMBS.008861523",
            "longitude": "4.648888",
            "latitude": "50.608819",
            "@id": "http://irail.be/stations/NMBS/008861523",
            "standardname": "Chastre",
            "name": "Chastre"
        },
        {
            "id": "BE.NMBS.008861531",
            "longitude": "4.636393",
            "latitude": "50.619453",
            "@id": "http://irail.be/stations/NMBS/008861531",
            "standardname": "Blanmont",
            "name": "Blanmont"
        },
        {
            "id": "BE.NMBS.008861549",
            "longitude": "4.613884",
            "latitude": "50.637611",
            "@id": "http://irail.be/stations/NMBS/008861549",
            "standardname": "Mont-Saint-Guibert",
            "name": "Mont-Saint-Guibert"
        },
        {
            "id": "BE.NMBS.008862018",
            "longitude": "5.769115",
            "latitude": "49.690939",
            "@id": "http://irail.be/stations/NMBS/008862018",
            "standardname": "Stockem",
            "name": "Stockem"
        },
        {
            "id": "BE.NMBS.008863008",
            "longitude": "4.86222",
            "latitude": "50.468794",
            "@id": "http://irail.be/stations/NMBS/008863008",
            "standardname": "Namur",
            "name": "Namur"
        },
        {
            "id": "BE.NMBS.008863115",
            "longitude": "4.876144",
            "latitude": "50.454843",
            "@id": "http://irail.be/stations/NMBS/008863115",
            "standardname": "Jambes",
            "name": "Jambes"
        },
        {
            "id": "BE.NMBS.008863156",
            "longitude": "4.877071380615234",
            "latitude": "50.369000316323856",
            "@id": "http://irail.be/stations/NMBS/008863156",
            "standardname": "Lustin",
            "name": "Lustin"
        },
        {
            "id": "BE.NMBS.008863354",
            "longitude": "4.880261",
            "latitude": "50.454798",
            "@id": "http://irail.be/stations/NMBS/008863354",
            "standardname": "Jambes-Est",
            "name": "Jambes-Est"
        },
        {
            "id": "BE.NMBS.008863362",
            "longitude": "4.884414",
            "latitude": "50.429098",
            "@id": "http://irail.be/stations/NMBS/008863362",
            "standardname": "Dave-Saint-Martin",
            "name": "Dave-Saint-Martin"
        },
        {
            "id": "BE.NMBS.008863404",
            "longitude": "5.094699",
            "latitude": "50.496759",
            "@id": "http://irail.be/stations/NMBS/008863404",
            "standardname": "Andenne",
            "name": "Andenne"
        },
        {
            "id": "BE.NMBS.008863438",
            "longitude": "5.081745",
            "latitude": "50.497209",
            "@id": "http://irail.be/stations/NMBS/008863438",
            "standardname": "Château-de-Seilles",
            "name": "Château-de-Seilles"
        },